[{"latitude":22.337916,"longitude":114.263373,"title":"Student Lounge - Virtual Barn Workstations","image_url":"http://itsc.ust.hk/sites/itscprod.sites.ust.hk/files/barn/vb_lounge.jpg","service_type":"virtual_barn"},{"latitude":22.335534142708,"longitude":114.26342786225314,"title":"LTJ - Virtual Barn Workstations","image_url":"http://itsc.ust.hk/sites/itscprod.sites.ust.hk/files/barn/mfp_ltj.jpg","service_type":"virtual_barn"},{"latitude":22.33632060929741,"longitude":114.26344127329821,"title":"Coffee Shop - MFP","image_url":"http://itsc.ust.hk/sites/itscprod.sites.ust.hk/files/barn/mfp_coffeeshop.jpg","service_type":"mfp"},{"latitude":22.337965476184255,"longitude":114.26350966962809,"title":"Student Lounge - MFP","image_url":"http://itsc.ust.hk/sites/itscprod.sites.ust.hk/files/barn/mfp_lounge.jpg","service_type":"mfp"},{"latitude":22.33567803913475,"longitude":114.26342786225314,"title":"2/F Concourse - LTJ","image_url":"http://itsc.ust.hk/wp-content/uploads/2015/10/IMG_0720.jpg","service_type":"satellite_printer"},{"latitude":22.337800685960367,"longitude":114.26943182945251,"title":"Test","image_url":"http://itsc.ust.hk/wp-content/uploads/2015/10/IMG_0720.jpg","service_type":"virtual_barn"},{"latitude":22.333761667192114,"longitude":114.27064418792725,"title":"Test 2","image_url":"http://itsc.ust.hk/wp-content/uploads/2015/10/IMG_0720.jpg","service_type":"mfp"},{"latitude":22.337522821094524,"longitude":114.26562309265137,"title":"Test Marker 123","image_url":"http://itsc.ust.hk/wp-content/uploads/2015/10/IMG_0720.jpg","service_type":"virtual_barn"},{"latitude":22.338812903289025,"longitude":114.26585912704468,"title":"test2","image_url":"http://itsc.ust.hk/sites/itscprod.sites.ust.hk/files/barn/mfp_lounge.jpg","service_type":"mfp"},{"latitude":22.33858465884676,"longitude":114.26275849342346,"title":"test999","image_url":"","service_type":"mfp"}]