{"markers":[{"latitude":22.336625958843598,"longitude":114.26344111561775,"title":"SEN Station - Computer Barn B","image_url":"","service_type":"SEN Stations"},{"latitude":22.33820073596659,"longitude":114.26417134702206,"title":"SEN Station - Library LG1 AV Service Counter","image_url":"","service_type":"SEN Stations"},{"latitude":22.335874227534063,"longitude":114.26343441009521,"title":"SEN Station - Outside LT-E","image_url":"","service_type":"SEN Stations"},{"latitude":22.33330516139861,"longitude":114.26482647657394,"title":"SEN Station - LSK Building","image_url":"","service_type":"SEN Stations"}],"marker_types":[{"title":"SEN Stations","icon_image_url":"http://itsc.ust.hk/sites/itscprod.sites.ust.hk/files/barn/computers.png"}],"map":{"center":{"latitude":22.33562097677705,"longitude":114.26574931415553},"zoom":17}}