{"markers":[{"latitude":22.33632060929741,"longitude":114.26344127329821,"title":"ITSC Satellite Printer - 1/F concourse Opposite to the coffee shop (MFP)","image_url":"http://itsc.ust.hk/sites/itscprod.sites.ust.hk/files/barn/vb_lounge.jpg","service_type":"MFP Printer"},{"latitude":22.336060108236975,"longitude":114.26345468434329,"title":"ITSC Satellite Printer - 1/F concourse near LT-E (MFP)","image_url":"http://itsc.ust.hk/sites/itscprod.sites.ust.hk/files/barn/mfp_lte.jpg","service_type":"MFP Printer"},{"latitude":22.335405,"longitude":114.263418,"title":"ITSC Satellite Printer - 2/F concourse near LT-J (MFP)","image_url":"http://itsc.ust.hk/sites/itscprod.sites.ust.hk/files/barn/mfp_ltj.jpg","service_type":"MFP Printer"},{"latitude":22.334859316105128,"longitude":114.26342249783511,"title":"ITSC Satellite Printer - CYT UG Floor (MFP)","image_url":"http://itsc.ust.hk/sites/itscprod.sites.ust.hk/files/barn/mfp_cytug.jpg","service_type":"MFP Printer"},{"latitude":22.33633797601748,"longitude":114.26359684142108,"title":"ITSC Satellite Printer - 1/F concourse near Coffee Shop (CoffeeShop)","image_url":"","service_type":"Satellite Printer"},{"latitude":22.33567803913475,"longitude":114.26342786225314,"title":"ITSC Satellite Printer - 2/F concourse near LT-J (LTJ)","image_url":"","service_type":"Satellite Printer"},{"latitude":22.336963176499154,"longitude":114.26321999105448,"title":"ITSC Satellite Printer - Room 4033 Lift 1 (PGCenter1)","image_url":"","service_type":"Satellite Printer"},{"latitude":22.337208790207207,"longitude":114.26350966962809,"title":"ITSC Satellite Printer - Room 4021 Lift 2 (PGCenter1)","image_url":"","service_type":"Satellite Printer"},{"latitude":22.333519577143534,"longitude":114.26490173610682,"title":"ITSC Satellite Printer - LSK 1/F Ourside 1001 (LSK1001)","image_url":"","service_type":"Satellite Printer"},{"latitude":22.335926136073514,"longitude":114.26377252611155,"title":"ITSC Satellite Printer - Engineering Common (SENG_Center)","image_url":"","service_type":"Satellite Printer"},{"latitude":22.3372652316804,"longitude":114.26561453315253,"title":"ITSC Satellite Printer - UG Hall I G/F Common Room (UGHall1)","image_url":"","service_type":"Satellite Printer"},{"latitude":22.337527591193403,"longitude":114.26669479283328,"title":"ITSC Satellite Printer - UG Hall II G/F Common Room (UGHall2)","image_url":"","service_type":"Satellite Printer"},{"latitude":22.338743245851827,"longitude":114.26582575711245,"title":"ITSC Satellite Printer - UG Hall III G/F Common Room (UGHall3)","image_url":"","service_type":"Satellite Printer"},{"latitude":22.336862698039585,"longitude":114.26724196347232,"title":"ITSC Satellite Printer - UG Hall IV G/F Common Room (UGHall4)","image_url":"","service_type":"Satellite Printer"},{"latitude":22.337009074043355,"longitude":114.26656336459155,"title":"ITSC Satellite Printer - UG Hall VI 2/F Lift Lobby (UGHall6)","image_url":"","service_type":"Satellite Printer"},{"latitude":22.338047346879854,"longitude":114.26620528968806,"title":"ITSC Satellite Printer - UG Hall VII 1/F Room C103 (UGHall7)","image_url":"http://itsc.ust.hk//sites/itscprod.sites.ust.hk/files/barn/mfp_hall7.jpg","service_type":"Satellite Printer"},{"latitude":22.336300761614655,"longitude":114.26775828870768,"title":"ITSC Satellite Printer - UG Hall VIII G/F Lobby (UGHall8)","image_url":"","service_type":"Satellite Printer"},{"latitude":22.336248661434087,"longitude":114.26834301027293,"title":"ITSC Satellite Printer - UG Hall IX G/F Lobby (UGHall9)","image_url":"","service_type":"Satellite Printer"},{"latitude":22.338136,"longitude":114.265066,"title":"ITSC Satellite Printer - PG Hall II G/F Lobby (PGHall2)","image_url":"","service_type":"Satellite Printer"},{"latitude":22.336607,"longitude":114.263778,"title":"ITSC Satellite Printer - SCI/Home (SSCI_Ceenter)","image_url":"","service_type":"Satellite Printer"},{"latitude":22.33745832,"longitude":114.26355511,"title":"ITSC Satellite Printer - Language Common Rm3018 (MFP)","image_url":"http://itsc.ust.hk//sites/itscprod.sites.ust.hk/files/barn/mfp_lang.jpg","service_type":"MFP Printer"},{"latitude":22.337916,"longitude":114.263373,"title":"Student Lounge - Virtual Barn Workstations","image_url":"http://itsc.ust.hk/sites/itscprod.sites.ust.hk/files/barn/vb_lounge.jpg","service_type":"Virtual Barn Workstation"},{"latitude":22.335534142708,"longitude":114.26342786225314,"title":"LTJ - Virtual Barn Workstations","image_url":"http://itsc.ust.hk/sites/itscprod.sites.ust.hk/files/barn/mfp_ltj.jpg","service_type":"Virtual Barn Workstation"},{"latitude":22.337208790207207,"longitude":114.26350966962809,"title":"Outside Barn B - Virtual Barn Workstations","image_url":"","service_type":"Virtual Barn Workstation"},{"latitude":22.3368877,"longitude":114.26342636,"title":"Near LTA and Barn B - Virtual Barn Workstations","image_url":"","service_type":"Virtual Barn Workstation"},{"latitude":22.33632060929741,"longitude":114.26344127329821,"title":"Near LTD - Virtual Barn Workstations","image_url":"http://itsc.ust.hk/sites/itscprod.sites.ust.hk/files/barn/mfp_coffeeshop.jpg","service_type":"Virtual Barn Workstation"},{"latitude":22.336060108236975,"longitude":114.26345468434329,"title":"Near LTE - Virtual Barn Workstations","image_url":"http://itsc.ust.hk/sites/itscprod.sites.ust.hk/files/barn/mfp_lte.jpg","service_type":"Virtual Barn Workstation"}],"marker_types":[{"title":"Virtual Barn Workstation","icon_image_url":"http://itsc.ust.hk/sites/itscprod.sites.ust.hk/files/barn/computers.png"},{"title":"MFP Printer","icon_image_url":"http://itsc.ust.hk/sites/itscprod.sites.ust.hk/files/barn/text.png"},{"title":"Satellite Printer","icon_image_url":"http://itsc.ust.hk/sites/itscprod.sites.ust.hk/files/barn/text2.png"}],"map":{"center":{"latitude":22.33562097677705,"longitude":114.26574931415553},"zoom":17}}