{"markers":[{"latitude":22.337916,"longitude":114.263373,"title":"Student Lounge - Virtual Barn Workstations","image_url":"http://itsc.ust.hk/sites/itscprod.sites.ust.hk/files/barn/vb_lounge.jpg","service_type":"Virtual Barn Workstation"},{"latitude":22.335534142708,"longitude":114.26342786225314,"title":"LTJ - Virtual Barn Workstations","image_url":"http://itsc.ust.hk/sites/itscprod.sites.ust.hk/files/barn/mfp_ltj.jpg","service_type":"Virtual Barn Workstation"},{"latitude":22.33632060929741,"longitude":114.26344127329821,"title":"Coffee Shop - MFP","image_url":"http://itsc.ust.hk/sites/itscprod.sites.ust.hk/files/barn/mfp_coffeeshop.jpg","service_type":"MFP Printer"},{"latitude":22.337965476184255,"longitude":114.26350966962809,"title":"Student Lounge - MFP","image_url":"http://itsc.ust.hk/sites/itscprod.sites.ust.hk/files/barn/mfp_lounge.jpg","service_type":"MFP Printer"},{"latitude":22.33567803913475,"longitude":114.26342786225314,"title":"2/F Concourse - LTJ","image_url":"http://itsc.ust.hk/wp-content/uploads/2015/10/IMG_0720.jpg","service_type":"Virtual Barn Workstation"},{"latitude":22.337800685960367,"longitude":114.26943182945251,"title":"Test","image_url":"http://itsc.ust.hk/wp-content/uploads/2015/10/IMG_0720.jpg","service_type":"Virtual Barn Workstation"},{"latitude":22.333761667192114,"longitude":114.27064418792725,"title":"Test 2","image_url":"http://itsc.ust.hk/wp-content/uploads/2015/10/IMG_0720.jpg","service_type":"Virtual Barn Workstation"},{"latitude":22.337522821094524,"longitude":114.26562309265137,"title":"Test Marker 123","image_url":"http://itsc.ust.hk/wp-content/uploads/2015/10/IMG_0720.jpg","service_type":"Virtual Barn Workstation"},{"latitude":22.338812903289025,"longitude":114.26585912704468,"title":"test2","image_url":"http://itsc.ust.hk/sites/itscprod.sites.ust.hk/files/barn/mfp_lounge.jpg","service_type":"Virtual Barn Workstation"},{"latitude":22.33858465884676,"longitude":114.26275849342346,"title":"test1112","image_url":"","service_type":"Virtual Barn Workstation"},{"latitude":22.337056403825,"longitude":114.2649793624878,"title":"t11","image_url":"","service_type":"Satellite Printer"},{"latitude":22.336302193875408,"longitude":114.2689061164856,"title":"test22fff","image_url":"","service_type":"Test"},{"latitude":22.337433507270063,"longitude":114.26662087440491,"title":"ttt","image_url":"","service_type":"MFP Printer"},{"latitude":22.338832750614174,"longitude":114.26701784133911,"title":"Test tsetset","image_url":"","service_type":"Satellite Printer"},{"latitude":22.332253207577043,"longitude":114.26892757415771,"title":"ACVC SDFSDF DSF","image_url":"","service_type":"Virtual Barn Workstation"}],"marker_types":[{"title":"Virtual Barn Workstation","icon_image_url":"http://itsc.ust.hk/sites/itscprod.sites.ust.hk/files/barn/computers.png"},{"title":"MFP Printer","icon_image_url":"http://itsc.ust.hk/sites/itscprod.sites.ust.hk/files/barn/text.png"},{"title":"Satellite Printer","icon_image_url":"http://itsc.ust.hk/sites/itscprod.sites.ust.hk/files/barn/text2.png"},{"title":"Test","icon_image_url":"http://itsc.ust.hk/sites/itscprod.sites.ust.hk/files/barn/text2.png"}],"map":{"center":{"latitude":22.33562097677705,"longitude":114.26574931415553},"zoom":17}}